name,latitude,longitude
のどごえ公園,34.661995,132.617962
広島市立安佐市民病院,34.506114,132.51588
広島市湯来交流体験センター,34.473678,132.240806
広島市国民宿舎湯来ロッジ,34.473429,132.239839
広島電鉄電停　横川駅,34.409492,132.450479
KOI PLACE（ひろでん会館跡地）,34.3972,132.428364
広島電鉄電停　広電西広島,34.39687,132.427941
広島市文化交流会館,34.388839,132.448986
アステールプラザ,34.387929,132.44805
広島城,34.402747,132.45905
公益財団法人ひろしま美術館,34.398616,132.458075
リーガロイヤルホテル広島,34.397343,132.457628
そごう広島店,34.395984,132.457148
紙屋町シャレオ,34.395295,132.457631
広島バスセンター,34.396021,132.457545
基町クレドパセーラ　ふれあい広場,34.396871,132.457588
広島電鉄電停　土橋,34.39449,132.446322
広島トランヴェールビルディング,34.395023,132.457848
広島電鉄電停　本通,34.393394,132.456978
縮景園,34.399578,132.467012
広島県立美術館,34.399952,132.466257
ドン．キホーテ,34.391258,132.462314
アリスガーデン(広島市西新天地公共広場),34.391692,132.462019
うらぶくろ商店街,34.392135,132.459841
旧日本銀行広島支店,34.391431,132.456665
広島電鉄電停　原爆ドーム前,34.396156,132.453994
原爆ドーム,34.39557,132.453779
おりづるタワー,34.395734,132.454634
カフェ　ポンテ,34.394083,132.454197
広島電鉄電停　袋町,34.391181,132.456212
レストハウス,34.393901,132.453243
広島平和記念資料館,34.391652,132.453001
広島国際会議場,34.392157,132.451258
えびす通り商店街,34.392852,132.463467
金座街商店街,34.392781,132.461987
本通商店街,34.392985,132.459315
広島高速道路公社　温品PA,34.42143,132.520534
広島港宇品旅客ターミナル,34.352458,132.455171
瀬戸内海汽船,34.35205,132.457072
瀬戸内シーライン,34.35205,132.457072
瀬戸内フェリー広島～松山,34.35205,132.457072
広島・呉・松山航路 クルーズフェリー　シーパセオ,34.35205,132.457072
広島駅総合案内所,34.398321,132.476236
ホテルグランヴィア広島,34.399,132.475537
広島電鉄電停　広島駅,34.396296,132.475205
広島駅南口広場,34.39684,132.474623
広島駅南口地下広場案内所,34.396212,132.474443
Mazda Zoom-Zoomスタジアム広島(3階コンコース),34.391911,132.484238
広島市現代美術館,34.385663,132.472716
広島市まんが図書館,34.387752,132.474461
安芸高田市歴史民俗博物館,34.672202,132.701291
たかみや湯の森,34.751112,132.6933
土師ダムサイクリングターミナル,34.657082,132.608576
神楽門前湯治村,34.722034,132.629061
三高港,34.25903,132.407484
小用港,34.248399,132.492612
切串港,34.284351,132.475601
ふるさと交流館(江田島市観光案内所),34.246167,132.476951
中町港,34.22387,132.444206
しまなみ街道　大浜PA（下り）,34.352268,133.170594
しまなみ街道　大浜PA（上り）,34.353069,133.169797
尾道市因島総合支所,34.294564,133.169292
尾道市営中央駐車場多目的ホール,34.284245,133.178104
新尾道駅市民ギャラリー,34.429963,133.190088
道の駅クロスロードみつぎ,34.511539,133.144652
しまなみ街道　瀬戸田PA（上り）,34.260248,133.079564
瀬戸田港,34.306937,133.084305
瀬戸田観光案内所 ,34.3061,133.0898
ロープウェイ山麓駅観光案内所,34.410667,133.201477
尾道商業会議所記念館 ,34.4065,133.1982
尾道駅観光案内所,34.404825,133.193796
尾道ポートターミナル ,34.4035,133.1928
千光寺新道,34.408815,133.199511
おんど観光文化会館うずしお,34.194632,132.536343
松濤園,34.187542,132.683923
県民の浜,34.164104,132.744509
入船山記念館,34.240393,132.563943
くれ観光情報プラザ,34.243746,132.55802
呉中央桟橋ターミナル,34.240774,132.556475
大和ミュージアム,34.241351,132.555896
御手洗休憩所,34.179944,132.865369
君田温泉　森の泉,34.899109,132.849351
江の川カヌー公園さくぎ,34.839375,132.722241
湯本豪一記念　日本妖怪博物館,34.815461,132.845496
三次市交通観光センター,34.80341,132.854707
広島三次ワイナリー,34.777936,132.866587
香遊ランド,34.618212,133.004891
せらにし青少年旅行村,34.642635,132.899486
竹原駅前観光案内処,34.3398,132.910212
ふれあいステーションただのうみ,34.336878,132.991127
忠海港,34.336919,132.994411
竹原市町並み保存センター,34.346902,132.910504
弥山本堂,34.278172,132.319722
弥山展望台,34.279813,132.319771
宮島ロープウエー,34.293252,132.326676
有之浦 （宮島クリニック周辺）,34.299125,132.321295
宮島包ヶ浦自然公園,34.295143,132.341405
宮島町御笠浜,34.297274,132.319075
宮島桟橋前広場,34.301871,132.322241
国民宿舎みやじま杜の宿,34.294806,132.314486
大聖院,34.292023,132.318467
西松原 （大願寺横公衆トイレ周辺）,34.29544,132.318517
グローバルリゾート総合スポーツセンターサンチュリー,34.353326,132.322807
東広島市観光案内所,34.431072,132.743404
西条酒蔵通り観光案内所,34.42978,132.746826
福山城,34.49069,133.360904
福寿会館,34.492066,133.361306
ＪＲ福山駅観光案内所,34.4896,133.362106
福山駅前バス案内所,34.48908,133.362318
福山市鞆の浦歴史民俗資料館,34.384299,133.381716
鞆の浦観光情報センター,34.385645,133.383744
福山市営渡船場,34.382767,133.38384
鞆の浦　常夜燈,34.382446,133.380801
上下歴史文化資料館,34.695534,133.120823
道の駅　びんご府中,34.570963,133.235953
地域交流センター｢キテラスふちゅう｣,34.575175,133.233265
三原市役所本庁舎,34.397624,133.078252
うきしろロビー観光案内所,34.400167,133.083605
みなとオアシス三原,34.398127,133.082174
広島空港,34.439938,132.918992
恐羅漢スノーパーク,34.597473,132.146473
三段峡水梨口,34.621439,132.192467
三段峡正面口,34.599408,132.209356
いこいの村ひろしま,34.646175,132.216661
道の駅来夢とごうち,34.574513,132.269812
井仁棚田,34.559353,132.280305
やわたハイランド１９１リゾート,34.694587,132.159836
岩国錦帯橋空港ビル,34.158894,132.23488
岩国シロヘビの館,34.170981,132.175348
岩国徴古館,34.171037,132.177168
岩国市観光交流所「本家　松がね」,34.166199,132.179198
宇野千代生家,34.156849,132.174556
岩国駅,34.172268,132.225094
周防大島松山フェリー,33.944374,132.438969
防予フェリーぐれいす,33.957277,132.13424
防予フェリーまーきゅりー,33.957277,132.13424
防予フェリーじゅぴたー,33.957277,132.13424
福岡市男女共同参画推進センター・アミカス,33.567529,130.413573
アゴーラ福岡山の上ホテル＆スパ,33.572835,130.382743
福岡市営地下鉄姪浜駅,33.583694,130.325477
福岡市営地下鉄室見駅,33.580962,130.340165
福岡市営地下鉄藤崎駅,33.581371,130.348304
福岡市営地下鉄西新駅,33.583825,130.359757
福岡市営地下鉄唐人町駅,33.590261,130.37047
福岡市営地下鉄大濠公園駅,33.590085,130.378815
福岡市営地下鉄赤坂駅,33.589155,130.391015
福岡市営地下鉄天神駅,33.591423,130.399062
福岡市営地下鉄中洲川端駅,33.59479,130.406406
福岡市営地下鉄祗園駅,33.594117,130.414613
福岡市営地下鉄博多駅,33.590194,130.420654
福岡市営地下鉄東比恵駅,33.589957,130.431324
福岡市営地下鉄福岡空港駅,33.597028,130.448793
福岡市観光案内所博多,33.590524,130.421069
福岡市営地下鉄呉服町駅,33.598222,130.409893
福岡市営地下鉄千代県庁口駅,33.602539,130.414281
福岡市営地下鉄馬出九大病院前駅,33.60933,130.419399
福岡市営地下鉄箱崎宮前駅,33.615781,130.419559
福岡市営地下鉄箱崎九大前駅,33.622142,130.42104
福岡市営地下鉄貝塚駅,33.631897,130.425482
福岡市営地下鉄橋本駅,33.555147,130.321026
福岡市営地下鉄次郎丸駅,33.552572,130.32948
福岡市営地下鉄賀茂駅,33.550524,130.337884
福岡市営地下鉄野芥駅,33.548307,130.34655
福岡市営地下鉄梅林駅,33.545794,130.354929
福岡市営地下鉄福大前駅,33.547493,130.362386
福岡市営地下鉄七隈駅,33.553251,130.361677
福岡市営地下鉄金山駅,33.559349,130.361581
福岡市営地下鉄茶山駅,33.566054,130.365443
福岡市営地下鉄別府駅,33.574135,130.369606
福岡市営地下鉄六本松駅,33.577639,130.377288
福岡市営地下鉄桜坂駅,33.577264,130.386794
福岡市営地下鉄薬院大通駅,33.580383,130.396171
福岡市営地下鉄薬院駅,33.581724,130.401664
福岡市営地下鉄渡辺通駅,33.58403,130.404904
福岡市営地下鉄天神南駅,33.588222,130.401696
博多港国際ターミナル,33.608294,130.400137
福岡空港国内線ターミナル,33.597275,130.447669
福岡市博物館,33.589907,130.352923
福岡市美術館,33.583771,130.379874
福岡タワー,33.593332,130.351525
サットンホテル博多シティ,33.586443,130.416303
福岡ＳＲＰセンタービル,33.59333,130.355862
福岡空港国際線ターミナル,33.584772,130.444064
JR九大学研都市駅,33.578158,130.259743
JR博多駅,33.590002,130.420622
「博多町家」ふるさと館,33.593732,130.411451
東洋ホテル,33.591873,130.422837
ホテルニューオータニ博多,33.583092,130.406304
福岡市NPO・ボランティア交流センター,33.5862641,130.397756
福岡銀行（ふくぎん本店広場）,33.591395,130.397823
福岡市観光案内所天神,33.589441,130.399218
福岡市役所西広場,33.590175,130.401074
福岡市役所本庁舎1Ｆロビー,33.590313,130.401735
JR吉塚駅,33.607382,130.423915
JR九産大前駅,33.673446,130.441379
JR南福岡駅,33.542325,130.460114
JR千早駅,33.649922,130.440974
JR福工大前駅,33.698851,130.440674
JR香椎駅,33.659353,130.443779
ふくふくプラザ,33.592601,130.373565
レソラ天神ビル,33.588436,130.39837
福岡パルコ,33.590715,130.398622
西鉄天神バスセンター,33.589138,130.399552
博多バスターミナル,33.591395,130.419667
THEBEACH,33.594868,130.351475
西鉄福岡（天神）駅,33.589138,130.399552
福岡市総合図書館,33.590082,130.350958
キャナルシティオーパ,33.58976,130.411229
大丸福岡天神店,33.588791,130.401218
岩田屋きらめき広場,33.5889167,130.397506
レソラサウステラス,33.586955,130.399774
ソラリアステージ,33.590016,130.399021
天神コア,33.590713,130.399821
中央ふ頭クルーズセンター,33.610508,130.396832
博多DOIMACHIビル自動販売機,33.594857,130.407322
博多駅地下街,33.590595,130.419425
博多1番街,33.590206,130.419667
マイング,33.591082,130.420579
博多リバレインモール,33.5949692,130.405811
福岡市立中央児童会館あいくる,33.586262,130.397765
なみきスクエア,33.6496915,130.438829
西鉄グランドホテル,33.5898676,130.395387
国営海の中道海浜公園,33.6645196,130.361038
西鉄イン天神,33.5856012,130.401625
西鉄イン福岡,33.5924764,130.402536
西鉄ホテルクルーム博多,33.5923744,130.419899
新天町商店街,33.590176,130.397459
マリンワールド海の中道,33.6607817,130.363396
FUKUOKAgrowthnext,33.5889493,130.394922
藤崎バスターミナル,33.5816383,130.347521
はかた伝統工芸館,33.5937753,130.410388
福岡市スタートアップカフェ,33.589043,130.395192
福岡市科学館,33.5768806,130.378067
福岡アジア美術館,33.5950391,130.406295
川端通商店街,33.5938696,130.407795
岩田屋本店本館地下2階入口自動販売機,33.5890931,130.397938
三の丸スクエア,33.5864848,130.380093
福岡城むかし探訪館,33.5873759,130.384746
鴻臚館跡展示館,33.5859363,130.385362
福岡市民防災センター,33.5893241,130.355617
福岡市植物園,33.5710827,130.38984
福岡市動物園,33.5722777,130.390356
福岡市南区役所本館,33.5616211,130.426456
福岡市南保健福祉センター,33.5613027,130.426798
福岡市赤煉瓦文化館,33.5931674,130.401855
志賀島旅客待合所,33.6622398,130.314247
西戸崎旅客待合所,33.6494129,130.359169
玄界島旅客待合所,33.6822718,130.23502
姪浜旅客待合所,33.5972397,130.327499
能古旅客待合所,33.6124969,130.310984
小呂島旅客待合所,33.8635116,130.0354